{"7":{"name":"Falkenberg","lon":12.50,"lat":56.88},"16":{"name":"Montego Bay","lon":-77.93,"lat":18.46},"17":{"name":"Boca Chica","lon":-69.59,"lat":18.55},"20":{"name":"Omaezaki","lon":138.23,"lat":34.60},"21":{"name":"Bahia Blanca","lon":-62.34,"lat":-38.77},"28":{"name":"Marina di Carrara","lon":10.05,"lat":44.03},"33":{"name":"Rochester","lon":0.50,"lat":51.40},"42":{"name":"Immingham","lon":-0.25,"lat":53.75},"43":{"name":"Mazatlan","lon":-106.43,"lat":23.18},"51":{"name":"Douarnenez","lon":-4.33,"lat":48.10},"52":{"name":"Lahad Datu","lon":118.33,"lat":5.03},"70":{"name":"Warrenpoint","lon":-6.32,"lat":54.11},"79":{"name":"Norrsundet","lon":17.16,"lat":60.95},"90":{"name":"Apapa-Lagos","lon":3.43,"lat":6.48},"102":{"name":"Aasiaat","lon":-52.88,"lat":68.71},"111":{"name":"Bellingham","lon":-122.50,"lat":48.75},"113":{"name":"Qaqortoq","lon":-46.03,"lat":60.71},"115":{"name":"Port Klang","lon":101.40,"lat":3.00},"119":{"name":"Navlakhi","lon":70.45,"lat":22.96},"120":{"name":"Jayapura","lon":140.71,"lat":-2.53},"126":{"name":"Manchester(USA)","lon":-122.53,"lat":47.55},"130":{"name":"Port Elizabeth","lon":25.63,"lat":-33.96},"134":{"name":"Hakodate","lon":140.71,"lat":41.78},"139":{"name":"Ras Lanuf","lon":18.56,"lat":30.51},"143":{"name":"Helsinki","lon":25.03,"lat":60.23},"151":{"name":"Chittagong","lon":91.82,"lat":22.36},"166":{"name":"Marseilles","lon":5.35,"lat":43.33},"167":{"name":"Salalah","lon":54.00,"lat":16.93},"171":{"name":"Hallstavik","lon":18.60,"lat":60.05},"174":{"name":"East London","lon":27.91,"lat":-33.03},"178":{"name":"Pietarsaari","lon":22.81,"lat":63.76},"181":{"name":"Casablanca","lon":-7.60,"lat":33.61},"185":{"name":"Jebel Ali","lon":55.15,"lat":25.05},"187":{"name":"La Pallice","lon":-1.26,"lat":46.20},"190":{"name":"Oranjestad","lon":-70.08,"lat":12.56},"193":{"name":"Puerto Madryn","lon":-65.17,"lat":-42.78},"205":{"name":"Gothenburg","lon":11.95,"lat":57.70},"207":{"name":"Puerto Quetzal","lon":-90.85,"lat":14.05},"219":{"name":"Fremantle","lon":115.75,"lat":-32.14},"232":{"name":"Balikpapan","lon":116.81,"lat":-1.26},"238":{"name":"Portland(OR USA)","lon":-122.73,"lat":45.56},"250":{"name":"Manzanillo(CUB)","lon":-77.11,"lat":20.35},"253":{"name":"Belfast","lon":-5.96,"lat":54.70},"267":{"name":"Manzanillo(DOM)","lon":-71.75,"lat":19.71},"273":{"name":"Manzanillo(MEX)","lon":-104.33,"lat":19.05},"283":{"name":"Puerto del Rosario","lon":-13.90,"lat":28.64},"285":{"name":"Ramsgate","lon":1.41,"lat":51.33},"298":{"name":"Kingston(JAM)","lon":-76.88,"lat":18.03},"303":{"name":"Port Vila","lon":168.30,"lat":-17.75},"306":{"name":"Huangpu","lon":113.49,"lat":23.22},"311":{"name":"Vancouver(CAN)","lon":-123.21,"lat":49.29},"322":{"name":"Hamriyah","lon":55.48,"lat":25.46},"333":{"name":"Cartagena(ESP)","lon":-0.98,"lat":37.58},"348":{"name":"Mollendo","lon":-72.03,"lat":-17.01},"359":{"name":"Dneprobugskiy","lon":31.91,"lat":46.75},"362":{"name":"Nouadhibou","lon":-17.05,"lat":20.90},"363":{"name":"Waterford","lon":-6.91,"lat":52.11},"369":{"name":"Montreal","lon":-73.56,"lat":45.61},"372":{"name":"Nagasaki","lon":129.83,"lat":32.71},"375":{"name":"Landskrona","lon":12.83,"lat":55.86},"391":{"name":"Shoreham","lon":-0.25,"lat":50.83},"393":{"name":"Esmeraldas","lon":-79.67,"lat":0.99},"394":{"name":"Ensenada(MEX)","lon":-116.63,"lat":31.85},"401":{"name":"San Andres","lon":-81.68,"lat":12.55},"402":{"name":"New Tuticorin","lon":78.21,"lat":8.75},"407":{"name":"Sevastopol","lon":33.71,"lat":44.76},"426":{"name":"Damietta","lon":31.80,"lat":31.38},"448":{"name":"Whangarei","lon":174.35,"lat":-35.73},"461":{"name":"Shakhtersk","lon":142.05,"lat":49.15},"464":{"name":"Sisimiut","lon":-53.68,"lat":66.95},"484":{"name":"Valletta","lon":14.57,"lat":35.99},"490":{"name":"Guayaquil","lon":-79.91,"lat":-2.28},"500":{"name":"Kaskinen","lon":21.21,"lat":62.38},"501":{"name":"Illichivsk","lon":30.72,"lat":46.46},"502":{"name":"Kawasaki","lon":139.75,"lat":35.50},"528":{"name":"Archangel","lon":40.50,"lat":64.53},"535":{"name":"Male","lon":73.50,"lat":4.16},"544":{"name":"Hound Point","lon":-3.36,"lat":56.00},"576":{"name":"Antwerp","lon":4.45,"lat":51.30},"589":{"name":"Hon Khoi","lon":109.23,"lat":12.56},"593":{"name":"Shimizu","lon":138.53,"lat":35.01},"603":{"name":"Rio de Janeiro","lon":-43.20,"lat":-22.91},"607":{"name":"Randers","lon":10.14,"lat":56.55},"611":{"name":"Makassar","lon":119.40,"lat":-5.13},"614":{"name":"Zhongshan","lon":113.35,"lat":22.51},"625":{"name":"Mistley","lon":1.08,"lat":51.95},"639":{"name":"Barranquilla","lon":-74.76,"lat":11.03},"655":{"name":"Frederiksvaerk","lon":12.15,"lat":56.08},"670":{"name":"Surabaya","lon":112.73,"lat":-7.20},"674":{"name":"Pago Pago","lon":-170.81,"lat":-14.33},"677":{"name":"Kristiansund","lon":7.73,"lat":63.11},"681":{"name":"Kristiansand","lon":8.10,"lat":58.24},"686":{"name":"Limassol","lon":33.10,"lat":34.69},"689":{"name":"Novorossiysk","lon":37.84,"lat":44.75},"693":{"name":"Porsgrunn","lon":9.65,"lat":59.13},"702":{"name":"Amfilochia","lon":21.16,"lat":38.86},"703":{"name":"Maizuru","lon":135.36,"lat":35.48},"704":{"name":"Guaranao Bay","lon":-70.21,"lat":11.66},"722":{"name":"Pyeongtaek","lon":126.78,"lat":37.00},"730":{"name":"Fujairah","lon":56.36,"lat":25.16},"732":{"name":"Algiers","lon":3.08,"lat":36.80},"743":{"name":"Santo Tomas de Castilla","lon":-88.75,"lat":15.78},"747":{"name":"Batu Ampar","lon":104.00,"lat":1.16},"752":{"name":"Amagasaki","lon":135.38,"lat":34.68},"766":{"name":"Puerto Castilla","lon":-86.05,"lat":16.01},"774":{"name":"Zhangjiagang","lon":120.40,"lat":31.96},"790":{"name":"Mejillones","lon":-70.46,"lat":-23.10},"808":{"name":"Naoetsu","lon":138.25,"lat":37.18},"811":{"name":"Kolkata","lon":88.35,"lat":22.58},"818":{"name":"Vostochnyy","lon":133.06,"lat":42.75},"819":{"name":"Alicante","lon":-0.48,"lat":38.33},"821":{"name":"Piraeus","lon":23.73,"lat":38.00},"828":{"name":"Tartous","lon":35.86,"lat":34.90},"830":{"name":"Rotterdam","lon":4.48,"lat":51.90},"835":{"name":"Nordenham","lon":8.48,"lat":53.48},"837":{"name":"Nakanoseki","lon":131.56,"lat":34.00},"843":{"name":"Amsterdam","lon":4.95,"lat":52.50},"854":{"name":"Baltimore","lon":-76.74,"lat":39.41},"856":{"name":"Freeport(BHS)","lon":-78.74,"lat":26.65},"861":{"name":"Chaguaramas","lon":-61.74,"lat":10.81},"870":{"name":"Par","lon":-4.70,"lat":50.35},"881":{"name":"Toamasina","lon":49.41,"lat":-18.15},"886":{"name":"Matarani","lon":-72.11,"lat":-16.98},"888":{"name":"Ishigaki","lon":124.16,"lat":24.33},"889":{"name":"Fos","lon":4.98,"lat":43.45},"900":{"name":"Sungei Pakning","lon":102.18,"lat":1.36},"903":{"name":"Port Sultan Qaboos","lon":58.56,"lat":23.63},"909":{"name":"Gulfport","lon":-89.08,"lat":30.35},"915":{"name":"Bar","lon":19.08,"lat":42.08},"923":{"name":"Eregli(Sea of Marmara)","lon":27.96,"lat":40.96},"933":{"name":"Mormugao","lon":73.80,"lat":15.41},"941":{"name":"Algeciras","lon":-5.46,"lat":36.21},"943":{"name":"Helsingborg","lon":12.75,"lat":56.16},"944":{"name":"Vladivostok","lon":131.97,"lat":43.23},"950":{"name":"Sandakan","lon":118.18,"lat":5.91},"954":{"name":"Telukbetung","lon":105.26,"lat":-5.45},"957":{"name":"Onomichi","lon":133.18,"lat":34.40},"962":{"name":"Uno","lon":133.95,"lat":34.48},"963":{"name":"Antofagasta","lon":-70.51,"lat":-23.72},"964":{"name":"Galveston","lon":-94.80,"lat":29.30},"966":{"name":"Halifax","lon":-63.58,"lat":44.67},"968":{"name":"Reggio di Calabria","lon":15.65,"lat":38.11},"987":{"name":"Ilo","lon":-71.35,"lat":-17.63},"1000":{"name":"Port Blair","lon":92.71,"lat":11.66},"1012":{"name":"Aberdeen(GBR)","lon":-2.06,"lat":57.15},"1017":{"name":"Chimbote","lon":-78.63,"lat":-9.08},"1018":{"name":"Puerto Plata","lon":-70.70,"lat":19.81},"1021":{"name":"Lae","lon":146.98,"lat":-6.73},"1044":{"name":"Tagoloan","lon":124.75,"lat":8.53},"1045":{"name":"Kantvik","lon":24.39,"lat":60.10},"1053":{"name":"La Libertad(ECU)","lon":-80.91,"lat":-2.21},"1070":{"name":"Ube","lon":131.20,"lat":33.93},"1080":{"name":"Tarragona","lon":1.23,"lat":41.10},"1097":{"name":"Vibo Valentia","lon":16.13,"lat":38.71},"1107":{"name":"Belize City","lon":-88.20,"lat":17.52},"1139":{"name":"Hiroshima","lon":132.45,"lat":34.33},"1140":{"name":"Montoir","lon":-2.13,"lat":47.33},"1141":{"name":"New Ross","lon":-6.95,"lat":52.40},"1142":{"name":"Torshavn","lon":-6.75,"lat":62.00},"1157":{"name":"Sodertalje","lon":17.63,"lat":59.20},"1159":{"name":"Hososhima","lon":131.66,"lat":32.45},"1162":{"name":"Asuncion","lon":-57.68,"lat":-25.26},"1164":{"name":"Figueira da Foz","lon":-8.86,"lat":40.15},"1165":{"name":"Singapore","lon":103.83,"lat":1.26},"1179":{"name":"Bandar Imam Khomeini","lon":49.06,"lat":30.41},"1182":{"name":"Shanghai","lon":121.50,"lat":31.25},"1219":{"name":"Altamira","lon":-97.88,"lat":22.48},"1220":{"name":"Hafnarfjordur","lon":-21.91,"lat":64.06},"1229":{"name":"Kokkola","lon":23.13,"lat":63.83},"1231":{"name":"New Mangalore","lon":74.80,"lat":12.91},"1235":{"name":"Eskifjordur","lon":-13.98,"lat":65.08},"1238":{"name":"Mar del Plata","lon":-57.64,"lat":-38.18},"1254":{"name":"Lyttelton","lon":172.83,"lat":-43.66},"1262":{"name":"Warnemunde","lon":12.14,"lat":54.24},"1274":{"name":"St. Vincent(CPV)","lon":-25.07,"lat":16.96},"1280":{"name":"Gunness Wharf","lon":-0.68,"lat":53.58},"1282":{"name":"Shantou","lon":116.84,"lat":23.41},"1286":{"name":"El Guamache","lon":-64.06,"lat":10.86},"1293":{"name":"Sunndalsora","lon":8.60,"lat":62.68},"1301":{"name":"Narsaq","lon":-45.98,"lat":60.90},"1304":{"name":"Szczecin","lon":14.59,"lat":53.46},"1314":{"name":"Shibushi","lon":131.11,"lat":31.46},"1320":{"name":"Hirtshals","lon":9.96,"lat":57.60},"1323":{"name":"St. Martin","lon":-63.05,"lat":18.03},"1340":{"name":"Launceston","lon":147.16,"lat":-41.46},"1348":{"name":"Matsuyama","lon":132.70,"lat":33.85},"1357":{"name":"Kota Kinabalu","lon":116.22,"lat":6.09},"1363":{"name":"Belgorod-Dnestrovskiy","lon":30.40,"lat":46.30},"1368":{"name":"Salaverry","lon":-79.00,"lat":-8.23},"1369":{"name":"San Juan(PRI)","lon":-66.26,"lat":18.61},"1375":{"name":"Uddevalla","lon":11.91,"lat":58.35},"1387":{"name":"Kisarazu","lon":139.88,"lat":35.36},"1389":{"name":"Mo i Rana","lon":14.13,"lat":66.31},"1391":{"name":"Point Central","lon":-17.03,"lat":20.81},"1392":{"name":"Santa Marta","lon":-74.34,"lat":11.26},"1413":{"name":"Iraklion","lon":25.16,"lat":35.26},"1425":{"name":"Kakogawa","lon":134.83,"lat":34.70},"1428":{"name":"Seven Islands","lon":-66.38,"lat":50.10},"1434":{"name":"La Salina","lon":-71.46,"lat":10.36},"1440":{"name":"Kalamata","lon":22.11,"lat":37.00},"1441":{"name":"Caldera(CRI)","lon":-84.85,"lat":9.91},"1444":{"name":"Kharg Is.","lon":50.31,"lat":29.23},"1447":{"name":"Qui Nhon","lon":109.23,"lat":13.76},"1452":{"name":"Pointe a Pitre","lon":-61.53,"lat":16.21},"1454":{"name":"Hansweert","lon":4.00,"lat":51.45},"1462":{"name":"Portsmouth","lon":-1.10,"lat":50.80},"1469":{"name":"Portsmouth(NH USA)","lon":-70.75,"lat":43.13},"1470":{"name":"Paradip","lon":86.68,"lat":20.26},"1472":{"name":"Campbell River","lon":-125.23,"lat":50.03},"1483":{"name":"Mizushima","lon":133.75,"lat":34.50},"1492":{"name":"Famagusta","lon":33.93,"lat":35.11},"1501":{"name":"Port de Bouc","lon":5.07,"lat":43.46},"1502":{"name":"Chalkis","lon":23.60,"lat":38.45},"1503":{"name":"Charleston","lon":-80.05,"lat":32.85},"1504":{"name":"Kaohsiung","lon":120.35,"lat":22.67},"1509":{"name":"Savannah","lon":-81.08,"lat":32.08},"1524":{"name":"Bintulu","lon":113.03,"lat":3.16},"1532":{"name":"Thessaloniki","lon":22.93,"lat":40.63},"1534":{"name":"New Plymouth","lon":174.08,"lat":-39.06},"1535":{"name":"Puerto Deseado","lon":-65.99,"lat":-47.75},"1536":{"name":"Santarem","lon":-54.70,"lat":-2.41},"1540":{"name":"Astrakhan","lon":48.06,"lat":46.36},"1546":{"name":"Palma(Canary Is)","lon":-17.76,"lat":28.68},"1549":{"name":"Duisburg","lon":6.75,"lat":51.43},"1557":{"name":"Hirohata","lon":134.61,"lat":34.76},"1590":{"name":"Suez","lon":32.55,"lat":29.96},"1591":{"name":"Viana do Castelo","lon":-8.83,"lat":41.68},"1593":{"name":"Dar es Salaam","lon":39.31,"lat":-6.81},"1597":{"name":"Kanazawa","lon":136.60,"lat":36.61},"1600":{"name":"Melbourne","lon":144.92,"lat":-37.96},"1602":{"name":"Ventspils","lon":21.60,"lat":57.40},"1607":{"name":"Punta Arenas","lon":-70.90,"lat":-53.16},"1612":{"name":"Talcahuano","lon":-73.10,"lat":-36.68},"1622":{"name":"Lake Charles","lon":-93.30,"lat":30.36},"1633":{"name":"Villagarcia","lon":-8.76,"lat":42.60},"1640":{"name":"Yosu","lon":127.86,"lat":34.88},"1647":{"name":"Pointe aux Trembles","lon":-73.48,"lat":45.63},"1648":{"name":"Goderich","lon":-81.75,"lat":43.75},"1652":{"name":"Pekanbaru","lon":101.45,"lat":0.55},"1658":{"name":"Rio Haina","lon":-70.14,"lat":18.46},"1661":{"name":"Ahus","lon":14.31,"lat":55.93},"1669":{"name":"Sfax","lon":10.76,"lat":34.73},"1675":{"name":"Zeebrugge","lon":3.35,"lat":51.38},"1676":{"name":"Wenzhou","lon":120.75,"lat":28.11},"1697":{"name":"Bremerhaven","lon":8.58,"lat":53.55},"1698":{"name":"Umm Qasr","lon":47.95,"lat":30.03},"1708":{"name":"Moss","lon":10.78,"lat":59.51},"1720":{"name":"Takoradi","lon":-1.73,"lat":4.88},"1726":{"name":"Boston(GBR)","lon":-0.14,"lat":53.00},"1729":{"name":"Oulu","lon":25.46,"lat":65.00},"1732":{"name":"Everingen","lon":0.00,"lat":0.00},"1733":{"name":"Khoms","lon":14.26,"lat":32.65},"1734":{"name":"Pantoloan","lon":119.83,"lat":-0.70},"1747":{"name":"Khor Fakkan","lon":56.36,"lat":25.35},"1750":{"name":"Wuhu","lon":118.36,"lat":31.33},"1781":{"name":"Cape Town","lon":18.43,"lat":-33.91},"1782":{"name":"Cebu","lon":123.90,"lat":10.30},"1786":{"name":"Tangier","lon":-5.80,"lat":35.78},"1795":{"name":"Wallhamn","lon":11.78,"lat":58.09},"1802":{"name":"Paramaribo","lon":-55.16,"lat":5.83},"1803":{"name":"St. Eustatius","lon":-63.12,"lat":17.63},"1816":{"name":"Nelson(NZL)","lon":173.31,"lat":-41.26},"1817":{"name":"Conakry","lon":-13.71,"lat":9.50},"1821":{"name":"Oxelosund","lon":17.14,"lat":58.77},"1822":{"name":"Stralsund","lon":13.10,"lat":54.31},"1823":{"name":"Cuxhaven","lon":8.70,"lat":53.86},"1826":{"name":"Pasajes","lon":-1.95,"lat":43.35},"1828":{"name":"Le Havre","lon":0.15,"lat":49.51},"1831":{"name":"Tees","lon":-1.17,"lat":54.68},"1832":{"name":"Mariupol","lon":37.52,"lat":47.10},"1838":{"name":"Skelleftea","lon":20.95,"lat":64.73},"1847":{"name":"El Dekheila","lon":29.80,"lat":31.15},"1857":{"name":"San Diego","lon":-117.17,"lat":32.75},"1872":{"name":"Yokkaichi","lon":136.65,"lat":34.95},"1878":{"name":"Hodeidah","lon":42.95,"lat":14.78},"1882":{"name":"Shimotsu","lon":135.13,"lat":34.11},"1886":{"name":"Kemi","lon":24.56,"lat":65.73},"1888":{"name":"Santiago(CUB)","lon":-75.86,"lat":19.98},"1891":{"name":"Misurata","lon":15.23,"lat":32.36},"1897":{"name":"Sidi Kerir Term.","lon":29.61,"lat":31.10},"1903":{"name":"Pasir Gudang","lon":104.02,"lat":1.46},"1907":{"name":"Bodo","lon":14.38,"lat":67.28},"1912":{"name":"Cotonou","lon":2.48,"lat":6.35},"1916":{"name":"Hull","lon":-0.38,"lat":53.83},"1917":{"name":"Leixoes","lon":-8.80,"lat":41.20},"1925":{"name":"Nea Moudhania","lon":23.28,"lat":40.23},"1927":{"name":"Moji","lon":130.96,"lat":33.95},"1933":{"name":"Vohemar","lon":50.00,"lat":-13.35},"1936":{"name":"Eleusis","lon":23.50,"lat":38.03},"1942":{"name":"Dili","lon":125.56,"lat":-8.53},"1949":{"name":"Kiel","lon":10.13,"lat":54.31},"1952":{"name":"Aden","lon":44.96,"lat":12.80},"1953":{"name":"Covenas","lon":-75.68,"lat":9.41},"1959":{"name":"Reni","lon":28.30,"lat":45.43},"1964":{"name":"Gove","lon":136.72,"lat":-12.23},"1965":{"name":"Suva","lon":178.51,"lat":-18.14},"1970":{"name":"El Bluff","lon":-83.73,"lat":12.01},"1972":{"name":"Aioi","lon":134.46,"lat":34.76},"1975":{"name":"Caen","lon":-0.35,"lat":49.18},"1981":{"name":"Toliary","lon":43.66,"lat":-23.36},"1985":{"name":"Vigo","lon":-8.82,"lat":42.26},"1988":{"name":"Oslo","lon":10.81,"lat":59.97},"1990":{"name":"Sete","lon":3.70,"lat":43.40},"1993":{"name":"Hopa","lon":41.40,"lat":41.41},"1995":{"name":"Greenock","lon":-4.73,"lat":55.95},"1997":{"name":"Oran","lon":-0.72,"lat":35.75},"2012":{"name":"Bata","lon":9.76,"lat":1.86},"2030":{"name":"Rota(ESP)","lon":-6.36,"lat":36.61},"2043":{"name":"Bedi","lon":70.03,"lat":22.51},"2057":{"name":"Bugo","lon":124.75,"lat":8.51},"2058":{"name":"Biak","lon":136.06,"lat":-1.16},"2067":{"name":"Bourgas","lon":27.61,"lat":42.60},"2076":{"name":"Port Arthur","lon":-93.91,"lat":29.86},"2085":{"name":"Antsiranana","lon":49.30,"lat":-12.26},"2086":{"name":"Suao","lon":121.94,"lat":24.66},"2088":{"name":"Oita","lon":131.66,"lat":33.26},"2101":{"name":"Barcelona","lon":2.16,"lat":41.35},"2107":{"name":"Safi","lon":-9.25,"lat":32.30},"2110":{"name":"Kure","lon":132.55,"lat":34.23},"2112":{"name":"Cabedelo","lon":-34.87,"lat":-7.01},"2116":{"name":"Honfleur","lon":0.23,"lat":49.41},"2121":{"name":"Shimonoseki","lon":130.93,"lat":33.93},"2123":{"name":"Grove Wharf","lon":-0.68,"lat":53.60},"2131":{"name":"Cristobal","lon":-79.91,"lat":9.35},"2138":{"name":"Swinoujscie","lon":14.25,"lat":53.91},"2140":{"name":"Cilacap","lon":109.00,"lat":-7.73},"2145":{"name":"Tyne","lon":-1.43,"lat":55.00},"2151":{"name":"Kobe","lon":135.21,"lat":34.66},"2155":{"name":"Harlingen","lon":5.54,"lat":53.22},"2157":{"name":"Doha(QAT)","lon":51.53,"lat":25.28},"2159":{"name":"Newcastle(AUS)","lon":151.88,"lat":-32.95},"2178":{"name":"Jorf Lasfar","lon":-8.63,"lat":33.11},"2186":{"name":"Nuuk","lon":-51.73,"lat":64.16},"2191":{"name":"Tanjung Sekong","lon":106.00,"lat":-5.91},"2200":{"name":"Tema","lon":0.09,"lat":5.74},"2201":{"name":"Cagayan de Oro","lon":124.65,"lat":8.48},"2204":{"name":"Lazaro Cardenas","lon":-102.18,"lat":17.91},"2206":{"name":"Boma","lon":13.05,"lat":-5.85},"2207":{"name":"Fortaleza","lon":-38.51,"lat":-3.73},"2211":{"name":"Koge","lon":12.20,"lat":55.45},"2213":{"name":"Anchorage","lon":-149.94,"lat":61.30},"2215":{"name":"Okpo","lon":128.71,"lat":34.88},"2218":{"name":"Odda","lon":6.55,"lat":60.06},"2219":{"name":"Miri","lon":113.98,"lat":4.38},"2220":{"name":"Maracaibo","lon":-71.65,"lat":10.71},"2230":{"name":"Yingkou","lon":122.23,"lat":40.68},"2235":{"name":"Puerto Barrios","lon":-88.74,"lat":15.82},"2239":{"name":"Haugesund","lon":5.29,"lat":59.53},"2241":{"name":"Poti","lon":41.65,"lat":42.15},"2248":{"name":"Felixstowe","lon":1.41,"lat":52.01},"2249":{"name":"Riga","lon":24.09,"lat":56.96},"2260":{"name":"Soyo","lon":12.42,"lat":-6.15},"2266":{"name":"Lome","lon":1.28,"lat":6.13},"2273":{"name":"Vada","lon":10.45,"lat":43.35},"2275":{"name":"Cork","lon":-8.61,"lat":52.04},"2278":{"name":"Apia","lon":-171.84,"lat":-13.87},"2297":{"name":"Teignmouth","lon":-3.50,"lat":50.55},"2302":{"name":"Longkou","lon":120.32,"lat":37.75},"2307":{"name":"Onne","lon":7.00,"lat":4.71},"2309":{"name":"Bari","lon":16.88,"lat":41.13},"2331":{"name":"Houston","lon":-95.33,"lat":29.75},"2334":{"name":"Magadan","lon":150.83,"lat":59.63},"2340":{"name":"Hualien","lon":121.65,"lat":24.12},"2346":{"name":"Djibouti","lon":43.15,"lat":11.53},"2355":{"name":"Kalundborg","lon":11.14,"lat":55.78},"2369":{"name":"Papeete","lon":-149.58,"lat":-17.53},"2375":{"name":"Guangzhou","lon":113.23,"lat":23.10},"2376":{"name":"Anadyr","lon":177.53,"lat":64.73},"2379":{"name":"La Goulette","lon":10.30,"lat":36.81},"2383":{"name":"Trabzon","lon":39.75,"lat":41.00},"2385":{"name":"Antalya","lon":30.61,"lat":36.83},"2388":{"name":"Las Palmas","lon":-15.56,"lat":28.28},"2394":{"name":"Setubal","lon":-8.97,"lat":38.54},"2399":{"name":"Mosjoen","lon":13.18,"lat":65.83},"2414":{"name":"Radicatel","lon":0.48,"lat":49.41},"2415":{"name":"Kinuura","lon":136.95,"lat":34.86},"2417":{"name":"Hachinohe","lon":141.53,"lat":40.53},"2441":{"name":"Kherson","lon":32.72,"lat":46.63},"2445":{"name":"Jakarta","lon":106.86,"lat":-6.10},"2472":{"name":"Preveza","lon":20.75,"lat":38.95},"2483":{"name":"Drammen","lon":10.23,"lat":59.75},"2487":{"name":"Castellon","lon":0.07,"lat":40.04},"2489":{"name":"Timaru","lon":171.25,"lat":-44.38},"2490":{"name":"Maaloy","lon":5.11,"lat":61.91},"2491":{"name":"Pointe Noire(COG)","lon":11.83,"lat":-4.78},"2502":{"name":"Hobart","lon":147.34,"lat":-43.00},"2503":{"name":"Honolulu","lon":-157.96,"lat":21.35},"2508":{"name":"Donghae","lon":129.15,"lat":37.63},"2512":{"name":"Puntarenas","lon":-84.85,"lat":9.98},"2516":{"name":"Imbituba","lon":-48.67,"lat":-28.23},"2517":{"name":"Bizerta","lon":9.88,"lat":37.26},"2519":{"name":"Sattahip","lon":100.85,"lat":12.65},"2521":{"name":"Dellys","lon":3.98,"lat":36.94},"2531":{"name":"Esbjerg","lon":8.56,"lat":55.53},"2539":{"name":"Tomakomai","lon":141.63,"lat":42.63},"2543":{"name":"Nunukan","lon":117.61,"lat":4.08},"2549":{"name":"Qingdao","lon":120.40,"lat":36.14},"2558":{"name":"Chacabuco","lon":-72.83,"lat":-45.46},"2559":{"name":"Varberg","lon":12.25,"lat":57.10},"2567":{"name":"Point Lisas","lon":-61.55,"lat":10.44},"2594":{"name":"Philadelphia","lon":-75.22,"lat":39.93},"2598":{"name":"Tampico","lon":-97.88,"lat":22.21},"2599":{"name":"Laayoune","lon":-13.43,"lat":27.08},"2605":{"name":"Bangkok","lon":100.56,"lat":13.70},"2616":{"name":"Marsa el Brega","lon":19.58,"lat":30.41},"2623":{"name":"Vestmannaeyjar","lon":-20.26,"lat":63.43},"2625":{"name":"Ishinomaki","lon":141.30,"lat":38.41},"2626":{"name":"Tarawa Atoll","lon":172.91,"lat":1.35},"2631":{"name":"Port of Spain","lon":-61.51,"lat":10.67},"2646":{"name":"Holmestrand","lon":10.26,"lat":59.53},"2649":{"name":"Ymuiden","lon":4.60,"lat":52.55},"2664":{"name":"San Antonio(CHL)","lon":-71.61,"lat":-33.60},"2685":{"name":"Augusta","lon":15.21,"lat":37.20},"2688":{"name":"Beirut","lon":35.51,"lat":33.90},"2702":{"name":"Roomassaare","lon":22.51,"lat":58.21},"2703":{"name":"Petropavlovsk-Kamchatskiy","lon":158.63,"lat":53.01},"2706":{"name":"Queenborough","lon":0.73,"lat":51.41},"2711":{"name":"San Antonio Este","lon":-64.76,"lat":-40.81},"2714":{"name":"Civitavecchia","lon":11.80,"lat":42.10},"2715":{"name":"Vancouver(USA)","lon":-122.66,"lat":45.63},"2719":{"name":"Skaramanga","lon":23.58,"lat":38.00},"2721":{"name":"Lyngdal","lon":7.03,"lat":58.13},"2726":{"name":"Mangalia","lon":28.58,"lat":43.81},"2729":{"name":"Buenos Aires","lon":-58.47,"lat":-34.65},"2732":{"name":"Nha Trang","lon":109.18,"lat":12.26},"2733":{"name":"Cartagena(COL)","lon":-75.57,"lat":10.41},"2756":{"name":"Copenhagen","lon":12.61,"lat":55.70},"2760":{"name":"Pulau Batam","lon":103.91,"lat":1.13},"2761":{"name":"Barrow on Humber","lon":-0.48,"lat":53.81},"2762":{"name":"Aalborg","lon":9.96,"lat":57.16},"2764":{"name":"Saldanha Bay","lon":17.93,"lat":-33.05},"2766":{"name":"Biringkassi","lon":119.50,"lat":-4.81},"2771":{"name":"Lattakia","lon":35.76,"lat":35.51},"2775":{"name":"Rio Grande(BRA)","lon":-52.08,"lat":-32.16},"2779":{"name":"Palermo","lon":13.36,"lat":38.11},"2782":{"name":"Port Everglades","lon":-80.11,"lat":26.10},"2789":{"name":"Tarakan","lon":117.60,"lat":3.28},"2808":{"name":"Burriana","lon":-0.06,"lat":39.86},"2815":{"name":"Gwangyang","lon":127.75,"lat":35.05},"2821":{"name":"Bristol","lon":-2.63,"lat":51.45},"2823":{"name":"Aarhus","lon":10.23,"lat":56.26},"2828":{"name":"Karachi","lon":67.00,"lat":24.83},"2831":{"name":"Fort de France","lon":-61.13,"lat":14.60},"2833":{"name":"Valparaiso","lon":-71.63,"lat":-33.01},"2839":{"name":"Hitachi","lon":140.63,"lat":36.48},"2842":{"name":"Yokohama","lon":139.66,"lat":35.45},"2849":{"name":"Sydney","lon":151.26,"lat":-33.92},"2865":{"name":"Salerno","lon":14.76,"lat":40.68},"2867":{"name":"Tanjung Pinang","lon":104.45,"lat":0.93},"2868":{"name":"Tanjung Pandan","lon":107.63,"lat":-2.75},"2869":{"name":"Ilheus","lon":-39.16,"lat":-14.84},"2871":{"name":"Hongay","lon":107.05,"lat":20.95},"2872":{"name":"Storugns","lon":18.80,"lat":57.83},"2877":{"name":"Trapani","lon":12.51,"lat":38.03},"2879":{"name":"Keadby","lon":-0.66,"lat":53.60},"2884":{"name":"St. Michael's","lon":-25.66,"lat":37.73},"2886":{"name":"Brownsville","lon":-97.40,"lat":25.95},"2889":{"name":"Vesteras","lon":16.43,"lat":59.60},"2905":{"name":"Sheerness","lon":0.83,"lat":51.47},"2906":{"name":"Mutsamudu","lon":44.40,"lat":-12.16},"2918":{"name":"General Santos","lon":125.16,"lat":6.10},"2921":{"name":"Numazu","lon":138.83,"lat":35.13},"2935":{"name":"Liverpool","lon":-3.02,"lat":53.56},"2940":{"name":"Manaus","lon":-60.01,"lat":-3.15},"2945":{"name":"Falmouth","lon":-5.11,"lat":50.16},"2957":{"name":"Qinhuangdao","lon":119.71,"lat":40.06},"2958":{"name":"Mumbai","lon":72.81,"lat":18.90},"2968":{"name":"La Guaira","lon":-66.93,"lat":10.60},"2972":{"name":"Port Manatee","lon":-82.55,"lat":27.50},"2978":{"name":"Colombo","lon":79.86,"lat":6.90},"2992":{"name":"Abidjan","lon":-4.00,"lat":5.30},"2993":{"name":"Hamburg","lon":9.99,"lat":53.69},"2994":{"name":"Tokuyama","lon":131.80,"lat":34.00},"2999":{"name":"Chennai","lon":80.28,"lat":13.08},"3003":{"name":"Ko Sichang","lon":100.80,"lat":13.15},"3010":{"name":"Agadir","lon":-9.77,"lat":30.55},"3012":{"name":"Ambarli","lon":28.70,"lat":40.96},"3017":{"name":"Baubau","lon":122.60,"lat":-5.45},"3023":{"name":"Ghazaouet","lon":-1.92,"lat":35.23},"3026":{"name":"Progreso","lon":-89.66,"lat":21.28},"3035":{"name":"Mishima-Kawanoe","lon":133.56,"lat":34.01},"3049":{"name":"Saipan Is.","lon":145.71,"lat":15.20},"3055":{"name":"Niteroi","lon":-43.11,"lat":-22.88},"3058":{"name":"Taganrog","lon":39.07,"lat":47.25},"3062":{"name":"Belawan","lon":98.71,"lat":3.80},"3066":{"name":"Dunedin","lon":170.51,"lat":-45.88},"3074":{"name":"Phuket","lon":98.41,"lat":7.83},"3077":{"name":"Buenaventura","lon":-77.08,"lat":3.90},"3083":{"name":"Fukuyama","lon":133.45,"lat":34.43},"3092":{"name":"Paranagua","lon":-48.52,"lat":-25.54},"3098":{"name":"Rostov","lon":39.75,"lat":47.29},"3099":{"name":"Niigata","lon":139.06,"lat":37.95},"3102":{"name":"Majuro Atoll","lon":171.13,"lat":7.08},"3106":{"name":"Trieste","lon":13.80,"lat":45.65},"3108":{"name":"Nanaimo","lon":-123.93,"lat":49.16},"3110":{"name":"Adelaide","lon":138.56,"lat":-34.85},"3113":{"name":"Palm Beach","lon":-80.05,"lat":26.76},"3117":{"name":"Monfalcone","lon":13.55,"lat":45.78},"3125":{"name":"Fredericia","lon":9.79,"lat":55.66},"3126":{"name":"Durres","lon":19.46,"lat":41.43},"3130":{"name":"Iquique","lon":-70.19,"lat":-20.28},"3133":{"name":"Frederikshavn","lon":10.55,"lat":57.43},"3144":{"name":"Salvador","lon":-38.57,"lat":-13.10},"3164":{"name":"Hong Kong","lon":114.22,"lat":22.31},"3168":{"name":"Sampit","lon":113.05,"lat":-2.98},"3169":{"name":"Kuantan","lon":103.43,"lat":3.96},"3175":{"name":"Rostock","lon":12.17,"lat":54.15},"3179":{"name":"Lirquen","lon":-72.98,"lat":-36.71},"3183":{"name":"Nanortalik","lon":-45.25,"lat":60.13},"3191":{"name":"Iwakuni","lon":132.25,"lat":34.16},"3196":{"name":"Benghazi","lon":20.05,"lat":32.11},"3203":{"name":"Karwar","lon":74.10,"lat":14.81},"3210":{"name":"Madeira","lon":-16.91,"lat":32.66},"3211":{"name":"Port Dickson","lon":101.78,"lat":2.51},"3216":{"name":"Nantes","lon":-1.56,"lat":47.23},"3218":{"name":"Reykjavik","lon":-22.07,"lat":64.29},"3220":{"name":"Corpach","lon":-5.11,"lat":56.83},"3223":{"name":"Patras","lon":21.77,"lat":38.28},"3227":{"name":"Rundvik","lon":19.45,"lat":63.53},"3229":{"name":"Canakkale","lon":26.41,"lat":40.15},"3233":{"name":"Egersund","lon":6.14,"lat":58.46},"3239":{"name":"Richards Bay","lon":32.10,"lat":-28.80},"3241":{"name":"Puerto Cortes","lon":-88.09,"lat":15.93},"3243":{"name":"Palma(Maj)","lon":2.70,"lat":39.59},"3257":{"name":"Tallinn","lon":24.85,"lat":59.56},"3272":{"name":"Laem Chabang","lon":100.88,"lat":13.08},"3283":{"name":"Lanshan","lon":119.35,"lat":35.08},"3309":{"name":"Torrevieja","lon":-0.68,"lat":37.96},"3315":{"name":"Yangon","lon":96.16,"lat":16.76},"3324":{"name":"Freetown","lon":-13.21,"lat":8.50},"3326":{"name":"Vila do Conde","lon":-48.75,"lat":-1.55},"3337":{"name":"St. Barthelemy","lon":-62.83,"lat":17.91},"3341":{"name":"Freeport(Texas)","lon":-95.40,"lat":28.99},"3342":{"name":"Honiara","lon":159.96,"lat":-9.41},"3350":{"name":"Bissau","lon":-15.58,"lat":11.85},"3365":{"name":"Wismar","lon":11.51,"lat":54.01},"3370":{"name":"Veracruz","lon":-96.19,"lat":19.25},"3376":{"name":"Massawa","lon":39.48,"lat":15.61},"3378":{"name":"Nikolayev","lon":32.05,"lat":46.96},"3380":{"name":"Nassau","lon":-77.36,"lat":25.14},"3381":{"name":"New Orleans","lon":-90.08,"lat":29.96},"3394":{"name":"Corpus Christi","lon":-97.50,"lat":27.92},"3408":{"name":"Manokwari","lon":134.08,"lat":-0.86},"3415":{"name":"Lianyungang","lon":119.45,"lat":34.73},"3422":{"name":"Aviles","lon":-5.93,"lat":43.58},"3423":{"name":"Sarroch","lon":9.03,"lat":39.08},"3428":{"name":"Zonguldak","lon":31.78,"lat":41.45},"3432":{"name":"Fuzhou","lon":119.30,"lat":26.05},"3434":{"name":"Arrecife","lon":-13.65,"lat":29.08},"3439":{"name":"Pulau Bukom","lon":103.76,"lat":1.23},"3444":{"name":"Nakhodka","lon":132.90,"lat":42.80},"3456":{"name":"Marsaxlokk","lon":14.58,"lat":35.96},"3458":{"name":"Valencia","lon":-0.30,"lat":39.45},"3473":{"name":"Cam Pha","lon":107.36,"lat":21.01},"3489":{"name":"Wakayama","lon":135.13,"lat":34.20},"3500":{"name":"Galatz","lon":28.08,"lat":45.41},"3501":{"name":"Songkhla","lon":100.58,"lat":7.23},"3512":{"name":"Angra do Heroismo","lon":-27.21,"lat":38.65},"3521":{"name":"La Spezia","lon":9.83,"lat":44.11},"3522":{"name":"Matanzas(VEN)","lon":-62.85,"lat":8.28},"3529":{"name":"Ho Chi Minh City","lon":106.71,"lat":10.76},"3530":{"name":"Alotau","lon":150.45,"lat":-10.31},"3531":{"name":"Cairns","lon":145.80,"lat":-16.98},"3547":{"name":"Ipswich","lon":1.16,"lat":52.05},"3560":{"name":"Haikou","lon":110.42,"lat":20.10},"3561":{"name":"Le Verdon","lon":-1.08,"lat":45.55},"3589":{"name":"Chioggia","lon":12.28,"lat":45.21},"3590":{"name":"Shekou","lon":113.90,"lat":22.48},"3592":{"name":"Naples","lon":14.26,"lat":40.85},"3595":{"name":"Alexandria(EGY)","lon":29.86,"lat":31.18},"3597":{"name":"Tekirdag","lon":27.50,"lat":40.95},"3610":{"name":"Santos","lon":-46.33,"lat":-23.93},"3614":{"name":"Praia(CPV)","lon":-23.51,"lat":14.90},"3617":{"name":"Cherbourg","lon":-1.74,"lat":49.71},"3618":{"name":"Sharjah","lon":55.38,"lat":25.36},"3624":{"name":"Napier","lon":176.91,"lat":-39.48},"3646":{"name":"Harwich","lon":1.41,"lat":52.02},"3647":{"name":"Taichung","lon":120.62,"lat":24.40},"3649":{"name":"Aalesund","lon":6.19,"lat":62.55},"3662":{"name":"Mombasa","lon":39.68,"lat":-4.06},"3664":{"name":"Chalmette","lon":-90.00,"lat":29.93},"3679":{"name":"Berbera","lon":45.01,"lat":10.45},"3689":{"name":"Metkovic","lon":17.65,"lat":43.05},"3693":{"name":"Fowey","lon":-4.63,"lat":50.33},"3695":{"name":"Trondheim","lon":10.54,"lat":63.46},"3705":{"name":"Santo Domingo","lon":-70.03,"lat":18.54},"3719":{"name":"Cadiz","lon":-6.30,"lat":36.59},"3724":{"name":"Taranto","lon":17.20,"lat":40.45},"3725":{"name":"Xiamen","lon":118.11,"lat":24.52},"3739":{"name":"Odense","lon":10.49,"lat":55.48},"3757":{"name":"Eregli","lon":31.45,"lat":41.30},"3762":{"name":"Susaki","lon":133.30,"lat":33.38},"3765":{"name":"Hernosand","lon":17.93,"lat":62.63},"3766":{"name":"Brest","lon":-4.54,"lat":48.40},"3767":{"name":"Dammam","lon":50.20,"lat":26.50},"3775":{"name":"Bergen","lon":5.31,"lat":60.51},"3791":{"name":"Owendo","lon":9.50,"lat":0.28},"3801":{"name":"Otaru","lon":141.01,"lat":43.20},"3817":{"name":"Ningbo","lon":121.55,"lat":29.86},"3824":{"name":"Wellington","lon":174.76,"lat":-41.28},"3832":{"name":"Nagoya","lon":136.85,"lat":35.05},"3837":{"name":"Catania","lon":15.10,"lat":37.51},"3838":{"name":"Kerch","lon":36.46,"lat":45.35},"3857":{"name":"Berdiansk","lon":36.78,"lat":46.75},"3863":{"name":"Aratu","lon":-38.48,"lat":-12.78},"3865":{"name":"Derince","lon":29.81,"lat":40.75},"3867":{"name":"Haiphong","lon":106.66,"lat":20.86},"3871":{"name":"Wilmington(NC USA)","lon":-78.06,"lat":34.23},"3880":{"name":"Bremen","lon":8.82,"lat":53.12},"3882":{"name":"Ushuaia","lon":-68.31,"lat":-54.81},"3886":{"name":"Komatsushima","lon":134.60,"lat":34.00},"3898":{"name":"Port Angeles","lon":-123.41,"lat":48.13},"3913":{"name":"Messina","lon":15.63,"lat":38.23},"3915":{"name":"Bilbao","lon":-3.13,"lat":43.40},"3917":{"name":"Boston(USA)","lon":-71.08,"lat":42.50},"3923":{"name":"Zhanjiang","lon":110.41,"lat":21.20},"3943":{"name":"Corinto","lon":-87.17,"lat":12.55},"3952":{"name":"Zarate","lon":-59.05,"lat":-34.16},"3955":{"name":"Cardiff","lon":-3.18,"lat":51.46},"3958":{"name":"Kerteh Term.","lon":103.55,"lat":4.51},"3960":{"name":"Dudinka","lon":86.16,"lat":69.40},"3968":{"name":"Sasebo","lon":129.71,"lat":33.13},"3974":{"name":"Yantai","lon":121.40,"lat":37.69},"3978":{"name":"Kaliningrad","lon":20.51,"lat":54.71},"3982":{"name":"Ploce","lon":17.41,"lat":43.03},"3983":{"name":"Dalian","lon":121.66,"lat":38.99},"3988":{"name":"Quanzhou","lon":118.58,"lat":24.90},"4002":{"name":"Tripoli(LBN)","lon":35.83,"lat":34.46},"4006":{"name":"Gemlik","lon":29.15,"lat":40.43},"4007":{"name":"Gamagori","lon":137.21,"lat":34.80},"4008":{"name":"Durban","lon":31.03,"lat":-29.86},"4011":{"name":"Darwin","lon":130.89,"lat":-12.59},"4016":{"name":"Tripoli(LBY)","lon":13.18,"lat":32.90},"4017":{"name":"Mahajanga","lon":46.31,"lat":-15.71},"4018":{"name":"Jinhae","lon":128.71,"lat":35.24},"4019":{"name":"Onahama","lon":140.91,"lat":36.93},"4023":{"name":"Ferrol","lon":-8.26,"lat":43.46},"4032":{"name":"Halmstad","lon":12.85,"lat":56.66},"4035":{"name":"Burns Hbr.","lon":-87.18,"lat":41.63},"4042":{"name":"Callao","lon":-77.22,"lat":-12.18},"4050":{"name":"Puerto Ordaz","lon":-62.71,"lat":8.35},"4059":{"name":"Corunna","lon":-8.36,"lat":43.38},"4060":{"name":"Alcudia","lon":3.13,"lat":39.83},"4065":{"name":"Liepaja","lon":21.05,"lat":56.54},"4067":{"name":"Brisbane","lon":153.21,"lat":-27.47},"4070":{"name":"Odessa","lon":30.88,"lat":46.52},"4074":{"name":"Batangas","lon":121.05,"lat":13.75},"4079":{"name":"Puerto Morelos","lon":-86.90,"lat":20.83},"4107":{"name":"Hannan","lon":135.35,"lat":34.46},"4114":{"name":"Sundsvall","lon":17.33,"lat":62.41},"4120":{"name":"Kokura","lon":130.90,"lat":33.90},"4121":{"name":"Tanjong Salirong","lon":115.10,"lat":4.90},"4123":{"name":"Delfzijl","lon":6.93,"lat":53.33},"4124":{"name":"Lanoraie","lon":-73.18,"lat":45.96},"4128":{"name":"Shikama","lon":134.66,"lat":34.78},"4136":{"name":"Halden","lon":11.36,"lat":59.11},"4137":{"name":"Hundested","lon":11.98,"lat":56.07},"4152":{"name":"Niihama","lon":133.28,"lat":33.98},"4165":{"name":"Mersin","lon":34.71,"lat":36.84},"4171":{"name":"Drogheda","lon":-6.42,"lat":53.75},"4173":{"name":"Botany Bay","lon":151.29,"lat":-34.10},"4188":{"name":"Port au Prince","lon":-72.47,"lat":18.59},"4192":{"name":"Turku","lon":22.22,"lat":60.56},"4195":{"name":"Tunis","lon":10.20,"lat":36.80},"4196":{"name":"Labuan","lon":115.23,"lat":5.28},"4198":{"name":"Chios","lon":26.15,"lat":38.38},"4199":{"name":"Melilla","lon":-2.93,"lat":35.28},"4210":{"name":"Parnu","lon":24.48,"lat":58.38},"4215":{"name":"Ain Sukhna Term.","lon":32.33,"lat":29.58},"4217":{"name":"Nauplia","lon":22.80,"lat":37.56},"4230":{"name":"Khorramshahr","lon":48.16,"lat":30.33},"4231":{"name":"Toyohashi","lon":137.31,"lat":34.71},"4239":{"name":"Korsakov","lon":142.75,"lat":46.66},"4240":{"name":"Kashima","lon":140.77,"lat":35.96},"4242":{"name":"Cienfuegos","lon":-80.45,"lat":22.13},"4244":{"name":"Brevik","lon":9.71,"lat":59.05},"4246":{"name":"Flushing","lon":3.58,"lat":51.45},"4247":{"name":"Lisbon","lon":-9.11,"lat":38.73},"4250":{"name":"Port Muhammad Bin Qasim","lon":67.35,"lat":24.76},"4258":{"name":"Volos","lon":22.95,"lat":39.35},"4264":{"name":"Nemrut Bay","lon":26.91,"lat":38.75},"4265":{"name":"Mtwara","lon":40.20,"lat":-10.25},"4279":{"name":"Stockholm","lon":18.16,"lat":59.44},"4281":{"name":"Eilat","lon":34.95,"lat":29.55},"4289":{"name":"Leghorn","lon":10.31,"lat":43.55},"4290":{"name":"Tobata","lon":130.85,"lat":33.91},"4295":{"name":"Mesaieed","lon":51.58,"lat":24.91},"4303":{"name":"Incheon","lon":126.71,"lat":37.60},"4312":{"name":"Cigading","lon":105.95,"lat":-6.01},"4313":{"name":"Sakaide","lon":133.85,"lat":34.33},"4320":{"name":"Yanbu","lon":38.05,"lat":24.10},"4322":{"name":"Christiansted","lon":-64.82,"lat":17.86},"4326":{"name":"Izmir","lon":27.20,"lat":38.54},"4329":{"name":"Larimna","lon":23.30,"lat":38.56},"4336":{"name":"Gresik","lon":112.65,"lat":-7.15},"4337":{"name":"Chiwan","lon":113.88,"lat":22.46},"4343":{"name":"Beihai","lon":109.05,"lat":21.45},"4345":{"name":"Koper","lon":13.81,"lat":45.59},"4348":{"name":"Kissy","lon":-13.18,"lat":8.48},"4352":{"name":"Montevideo","lon":-56.26,"lat":-34.90},"4353":{"name":"Maceio","lon":-35.73,"lat":-9.66},"4366":{"name":"Kavala","lon":24.41,"lat":40.91},"4374":{"name":"Lubeck","lon":10.66,"lat":53.86},"4380":{"name":"Chah Bahar","lon":60.53,"lat":25.33},"4389":{"name":"Sakata","lon":139.81,"lat":38.93},"4391":{"name":"Brindisi","lon":17.98,"lat":40.65},"4400":{"name":"Muuga","lon":24.95,"lat":59.60},"4402":{"name":"Abu Dhabi","lon":54.36,"lat":24.48},"4403":{"name":"Sihanoukville","lon":103.50,"lat":10.63},"4404":{"name":"Gunsan","lon":126.71,"lat":36.05},"4406":{"name":"Sousse","lon":10.65,"lat":35.83},"4410":{"name":"Hakata","lon":130.38,"lat":33.61},"4421":{"name":"Sao Tome","lon":6.75,"lat":0.35},"4431":{"name":"Mukran","lon":13.58,"lat":54.48},"4436":{"name":"Subic Bay","lon":120.23,"lat":14.78},"4437":{"name":"Kudamatsu","lon":131.85,"lat":34.00},"4438":{"name":"Weihai","lon":122.15,"lat":37.50},"4444":{"name":"Grangemouth","lon":-3.68,"lat":56.03},"4445":{"name":"Port Walcott","lon":117.26,"lat":-20.72},"4447":{"name":"Farsund","lon":6.83,"lat":58.20},"4448":{"name":"Bordeaux","lon":-0.56,"lat":44.83},"4449":{"name":"Nador","lon":-2.91,"lat":35.27},"4452":{"name":"Sakaiminato","lon":133.25,"lat":35.53},"4453":{"name":"Itajai","lon":-48.70,"lat":-27.04},"4456":{"name":"Tornio","lon":24.15,"lat":65.85},"4458":{"name":"Takamatsu","lon":134.05,"lat":34.35},"4466":{"name":"Wakamatsu","lon":130.81,"lat":33.91},"4471":{"name":"Tenes","lon":1.34,"lat":36.53},"4474":{"name":"Mundra","lon":69.70,"lat":22.90},"4485":{"name":"Kolobrzeg","lon":15.56,"lat":54.18},"4486":{"name":"Kushiro","lon":144.36,"lat":42.98},"4488":{"name":"Kodiak","lon":-152.40,"lat":57.78},"4489":{"name":"Seattle","lon":-122.33,"lat":47.63},"4492":{"name":"London","lon":-0.06,"lat":51.50},"4500":{"name":"St. Thomas","lon":-64.93,"lat":18.38},"4504":{"name":"Boulogne","lon":1.61,"lat":50.73},"4510":{"name":"Guanta","lon":-64.60,"lat":10.25},"4523":{"name":"Matadi","lon":13.45,"lat":-5.81},"4524":{"name":"Mihara","lon":133.10,"lat":34.38},"4525":{"name":"Merauke","lon":140.38,"lat":-8.46},"4528":{"name":"Matsue","lon":133.06,"lat":35.48},"4529":{"name":"Moerdijk","lon":4.61,"lat":51.70},"4534":{"name":"Dordrecht","lon":4.65,"lat":51.80},"4536":{"name":"Hadera","lon":34.95,"lat":32.51},"4537":{"name":"Limay(PHL)","lon":120.60,"lat":14.56},"4538":{"name":"Ghent","lon":3.85,"lat":51.13},"4542":{"name":"Jubail","lon":49.65,"lat":27.01},"4554":{"name":"Yawata","lon":130.80,"lat":33.86},"4555":{"name":"Tanjung Redeb","lon":117.48,"lat":2.16},"4562":{"name":"Tuapse","lon":39.06,"lat":44.08},"4564":{"name":"Lautoka","lon":177.46,"lat":-17.63},"4572":{"name":"New York","lon":-74.11,"lat":40.76},"4587":{"name":"Nevis","lon":-62.61,"lat":17.13},"4588":{"name":"Degrad des Cannes","lon":-52.26,"lat":4.85},"4592":{"name":"Semarang","lon":110.41,"lat":-6.96},"4593":{"name":"Keelung","lon":121.87,"lat":25.24},"4601":{"name":"Miyako","lon":141.96,"lat":39.63},"4604":{"name":"Jeddah","lon":39.16,"lat":21.46},"4611":{"name":"Sines","lon":-8.97,"lat":37.96},"4612":{"name":"Syros","lon":24.95,"lat":37.43},"4620":{"name":"Auckland","lon":174.91,"lat":-36.95},"4624":{"name":"Puerto Limon","lon":-83.05,"lat":10.00},"4625":{"name":"Nouakchott","lon":-16.06,"lat":18.08},"4638":{"name":"Norrkoping","lon":16.20,"lat":58.60},"4640":{"name":"Southampton","lon":-1.46,"lat":50.90},"4646":{"name":"Dublin","lon":-6.35,"lat":53.48},"4661":{"name":"Natal(BRA)","lon":-35.18,"lat":-5.78},"4665":{"name":"Gabes","lon":10.06,"lat":33.95},"4666":{"name":"Arzew","lon":-0.39,"lat":35.95},"4671":{"name":"Tawau","lon":117.96,"lat":4.37},"4681":{"name":"Izmail","lon":28.85,"lat":45.33},"4692":{"name":"Marsala","lon":12.43,"lat":37.80},"4695":{"name":"Noshiro","lon":140.00,"lat":40.21},"4700":{"name":"Jacksonville","lon":-81.65,"lat":30.43},"4702":{"name":"Split","lon":16.45,"lat":43.50},"4703":{"name":"Iskenderun","lon":36.16,"lat":36.60},"4704":{"name":"Mohammedia","lon":-7.36,"lat":33.71},"4705":{"name":"Misumi","lon":130.46,"lat":32.60},"4707":{"name":"Bandirma","lon":27.96,"lat":40.35},"4714":{"name":"Larvik","lon":10.03,"lat":59.05},"4717":{"name":"Tsuruga","lon":136.08,"lat":35.66},"4724":{"name":"Jeju","lon":126.55,"lat":33.51},"4731":{"name":"San Pedro(CIV)","lon":-6.61,"lat":4.73},"4739":{"name":"Sagunto","lon":-0.21,"lat":39.65},"4747":{"name":"Dakar","lon":-17.41,"lat":14.68},"4751":{"name":"Mukalla","lon":49.13,"lat":14.53},"4752":{"name":"Ravenna","lon":12.28,"lat":44.41},"4760":{"name":"Izmit","lon":29.91,"lat":40.76},"4761":{"name":"Kochi(IND)","lon":76.23,"lat":9.96},"4774":{"name":"Venice","lon":12.33,"lat":45.43},"4779":{"name":"Kuching","lon":110.40,"lat":1.56},"4786":{"name":"Macau","lon":113.55,"lat":22.20},"4787":{"name":"Banjarmasin","lon":114.58,"lat":-3.33},"4792":{"name":"Ancud","lon":-73.83,"lat":-41.86},"4796":{"name":"Lindo","lon":10.53,"lat":55.46},"4799":{"name":"Duluth","lon":-92.15,"lat":46.73},"4802":{"name":"Merak","lon":105.96,"lat":-5.93},"4804":{"name":"Hamilton(CAN)","lon":-79.85,"lat":43.23},"4806":{"name":"Nanjing","lon":118.78,"lat":32.05},"4811":{"name":"Wuhan","lon":114.31,"lat":30.58},"4815":{"name":"Lobito","lon":13.63,"lat":-12.38},"4820":{"name":"Kruibeke","lon":4.31,"lat":51.16},"4824":{"name":"Bijela","lon":18.66,"lat":42.45},"4826":{"name":"Nuku'alofa","lon":-175.18,"lat":-21.13},"4827":{"name":"Balboa","lon":-79.56,"lat":8.95},"4828":{"name":"Namibe","lon":12.22,"lat":-15.29},"4830":{"name":"Savona","lon":8.48,"lat":44.30},"4832":{"name":"Kandla","lon":70.21,"lat":23.03},"4837":{"name":"Gioia Tauro","lon":15.90,"lat":38.43},"4842":{"name":"Dandong","lon":124.40,"lat":40.13},"4844":{"name":"Marin","lon":-8.76,"lat":42.47},"4851":{"name":"Ceuta","lon":-5.35,"lat":35.96},"4858":{"name":"Suape","lon":-34.96,"lat":-8.52},"4860":{"name":"Uusikaupunki","lon":21.40,"lat":60.80},"4862":{"name":"Yarimca","lon":29.76,"lat":40.73},"4866":{"name":"Mawei","lon":119.45,"lat":25.98},"4867":{"name":"Nacala","lon":40.66,"lat":-14.53},"4868":{"name":"Bitung","lon":125.18,"lat":1.43},"4871":{"name":"Skien","lon":9.61,"lat":59.20},"4878":{"name":"Port Jerome","lon":0.53,"lat":49.46},"4893":{"name":"Tofte","lon":10.58,"lat":59.55},"4899":{"name":"Miami","lon":-80.20,"lat":25.88},"4912":{"name":"Slite","lon":18.81,"lat":57.70},"4920":{"name":"Itaqui","lon":-44.49,"lat":-2.65},"4926":{"name":"Palembang","lon":104.76,"lat":-2.98},"4933":{"name":"Victoria(CAN)","lon":-123.38,"lat":48.41},"4938":{"name":"Djen Djen","lon":5.80,"lat":36.85},"4940":{"name":"Santander","lon":-3.81,"lat":43.61},"4942":{"name":"Terneuzen","lon":3.81,"lat":51.33},"4956":{"name":"Soderhamn","lon":17.10,"lat":61.31},"4960":{"name":"Cumana","lon":-64.18,"lat":10.46},"4973":{"name":"Karlshamn","lon":14.92,"lat":56.25},"4977":{"name":"Los Angeles","lon":-118.38,"lat":33.76},"4984":{"name":"Shuaiba","lon":48.16,"lat":29.03},"4992":{"name":"Cagliari","lon":9.08,"lat":39.20},"4993":{"name":"Anzio","lon":12.63,"lat":41.45},"4996":{"name":"Bremanger","lon":4.95,"lat":61.85},"5014":{"name":"Ajman","lon":55.46,"lat":25.45},"5015":{"name":"Bandar Abbas","lon":56.20,"lat":27.13},"5016":{"name":"Kochi(JPN)","lon":133.56,"lat":33.51},"5017":{"name":"Coco Solo","lon":-79.88,"lat":9.36},"5019":{"name":"Dundee","lon":-2.96,"lat":56.46},"5022":{"name":"Port Sudan","lon":37.23,"lat":19.61},"5025":{"name":"Emden","lon":7.27,"lat":53.40},"5040":{"name":"Rabaul","lon":152.18,"lat":-4.20},"5041":{"name":"Belem","lon":-48.56,"lat":-1.50},"5048":{"name":"Dubai","lon":55.32,"lat":25.40},"5067":{"name":"Annapolis Anch.","lon":0.00,"lat":0.00},"5072":{"name":"Banjul","lon":-16.56,"lat":13.45},"5075":{"name":"Hamina","lon":27.19,"lat":60.67},"5079":{"name":"Mahon","lon":4.30,"lat":39.86},"5094":{"name":"Tampa","lon":-82.45,"lat":27.95},"5096":{"name":"Visakhapatnam","lon":83.30,"lat":17.70},"5105":{"name":"Inkoo","lon":24.01,"lat":60.05},"5106":{"name":"Aveiro","lon":-8.83,"lat":40.79},"5111":{"name":"Comeau Bay","lon":-68.15,"lat":49.21},"5112":{"name":"Argentia","lon":-53.98,"lat":47.30},"5122":{"name":"Abu Fulus","lon":48.03,"lat":30.45},"5123":{"name":"Beira","lon":34.83,"lat":-19.83},"5126":{"name":"Gandia","lon":-0.15,"lat":39.00},"5127":{"name":"Samarinda","lon":117.15,"lat":-0.50},"5129":{"name":"Sorel","lon":-73.11,"lat":46.05},"5133":{"name":"Haldia","lon":88.08,"lat":22.01},"5135":{"name":"Gdynia","lon":18.68,"lat":54.68},"5137":{"name":"Masan","lon":128.67,"lat":35.31},"5141":{"name":"Fayal","lon":-28.70,"lat":38.58},"5144":{"name":"Kallo","lon":4.37,"lat":51.41},"5145":{"name":"Ancona","lon":13.61,"lat":43.62},"5146":{"name":"Ulsan","lon":129.39,"lat":35.55},"5147":{"name":"Weipa","lon":141.90,"lat":-12.79},"5152":{"name":"Davao","lon":125.75,"lat":7.19},"5153":{"name":"Tsuneishi","lon":133.28,"lat":34.36},"5157":{"name":"Douala","lon":9.70,"lat":4.05},"5160":{"name":"Malmo","lon":13.05,"lat":55.66},"5171":{"name":"Gijon","lon":-5.70,"lat":43.63},"5172":{"name":"Sakai","lon":135.40,"lat":34.56},"5196":{"name":"Manila","lon":120.96,"lat":14.58},"5201":{"name":"Recife","lon":-34.95,"lat":-8.05},"5213":{"name":"Havana","lon":-82.35,"lat":23.13},"5214":{"name":"Palua","lon":-62.70,"lat":8.36},"5224":{"name":"Bejaia","lon":5.13,"lat":36.76},"5227":{"name":"Puerto Cabezas","lon":-83.38,"lat":14.03},"5233":{"name":"Puerto Cabello","lon":-68.00,"lat":10.48},"5241":{"name":"Murmansk","lon":33.08,"lat":68.96},"5253":{"name":"Bontang","lon":117.48,"lat":0.10},"5263":{"name":"Tacoma","lon":-122.41,"lat":47.25},"5268":{"name":"Rouen","lon":1.08,"lat":49.48},"5270":{"name":"Rijeka","lon":14.43,"lat":45.31},"5290":{"name":"Mina Saqr","lon":56.05,"lat":25.98},"5295":{"name":"Busan","lon":129.14,"lat":35.12},"5303":{"name":"Braila","lon":27.98,"lat":45.25},"5304":{"name":"Dakhla","lon":-15.91,"lat":23.70},"5307":{"name":"Ambon","lon":128.16,"lat":-3.70},"5325":{"name":"Paita","lon":-81.11,"lat":-5.08},"5333":{"name":"Port Moresby","lon":147.10,"lat":-9.43},"5334":{"name":"Manta","lon":-80.71,"lat":-0.93},"5339":{"name":"Gebze","lon":29.43,"lat":40.76},"5340":{"name":"Dumai","lon":101.45,"lat":1.68},"5345":{"name":"Akita","lon":140.06,"lat":39.75},"5351":{"name":"Sulina","lon":29.65,"lat":45.15},"5361":{"name":"Ponce","lon":-66.65,"lat":17.96},"5363":{"name":"Klaipeda","lon":21.16,"lat":55.78},"5393":{"name":"St. Petersburg","lon":30.33,"lat":59.93},"5397":{"name":"Grenaa","lon":11.03,"lat":56.53},"5403":{"name":"Fangcheng","lon":108.35,"lat":21.75},"5406":{"name":"Sauda","lon":6.35,"lat":59.65},"5411":{"name":"Perth","lon":-3.43,"lat":56.40},"5438":{"name":"Vitoria","lon":-40.33,"lat":-20.30},"5445":{"name":"Kimbe","lon":150.15,"lat":-5.53},"5446":{"name":"Itacoatiara","lon":-58.45,"lat":-3.15},"5450":{"name":"Panjang","lon":105.33,"lat":-5.46},"5454":{"name":"Straa","lon":19.03,"lat":57.90},"5470":{"name":"Kupang","lon":123.56,"lat":-10.16},"5476":{"name":"Da Nang","lon":108.30,"lat":16.10},"5477":{"name":"Malaga","lon":-4.50,"lat":36.72},"5483":{"name":"Fernandina","lon":-81.46,"lat":30.68},"5485":{"name":"Nantong","lon":120.81,"lat":32.00},"5488":{"name":"Giresun","lon":38.38,"lat":40.91},"5489":{"name":"Aliaga","lon":26.98,"lat":38.80},"5490":{"name":"Walvis Bay","lon":14.50,"lat":-22.95},"5491":{"name":"Sikka","lon":69.80,"lat":22.56},"5493":{"name":"Osaka","lon":135.40,"lat":34.65},"5494":{"name":"Dutch Hbr.","lon":-166.63,"lat":53.91},"5497":{"name":"Luwuk","lon":122.78,"lat":-0.93},"5505":{"name":"Berne(DEU)","lon":10.50,"lat":53.18},"5506":{"name":"Cabinda","lon":12.27,"lat":-5.56},"5512":{"name":"Blyth","lon":-1.57,"lat":55.21},"5513":{"name":"Dunkirk","lon":2.36,"lat":51.07},"5520":{"name":"Bastia","lon":9.45,"lat":42.70},"5521":{"name":"Genoa","lon":8.91,"lat":44.41},"5522":{"name":"Constantza","lon":28.73,"lat":44.16},"5523":{"name":"Warri","lon":5.73,"lat":5.51},"5533":{"name":"Benoa","lon":115.25,"lat":-8.75},"5546":{"name":"Holla","lon":9.11,"lat":63.28},"5554":{"name":"Ashdod","lon":34.76,"lat":31.89},"5576":{"name":"Setoda","lon":133.10,"lat":34.30},"5581":{"name":"Sao Francisco do Sul","lon":-48.63,"lat":-26.23},"5584":{"name":"Orkanger","lon":9.85,"lat":63.31},"5586":{"name":"Mokpo","lon":126.39,"lat":34.92},"5588":{"name":"Astoria","lon":-123.83,"lat":46.18},"5591":{"name":"Mostaganem","lon":0.20,"lat":35.94},"5598":{"name":"Gulluk","lon":27.63,"lat":37.25},"5605":{"name":"San Francisco","lon":-122.41,"lat":37.80},"5608":{"name":"Monrovia","lon":-10.81,"lat":6.33},"5614":{"name":"Nampo","lon":125.41,"lat":38.73},"5622":{"name":"Port Gentil","lon":8.78,"lat":-0.71},"5623":{"name":"Port Kembla","lon":150.94,"lat":-34.60},"5625":{"name":"Mantyluoto","lon":21.59,"lat":61.66},"5629":{"name":"Maputo","lon":32.60,"lat":-25.98},"5639":{"name":"Almeria","lon":-2.50,"lat":36.83},"5643":{"name":"Fraser River Port","lon":-122.91,"lat":49.20},"5644":{"name":"Willebroek","lon":4.35,"lat":51.05},"5645":{"name":"Floro","lon":5.03,"lat":61.60},"5660":{"name":"Thunder Bay","lon":-89.21,"lat":48.41},"5676":{"name":"Rauma","lon":21.59,"lat":61.23},"5677":{"name":"Varna","lon":28.05,"lat":43.32},"5681":{"name":"Sorong","lon":131.23,"lat":-0.88},"5698":{"name":"Karumba","lon":140.87,"lat":-17.53},"5708":{"name":"Chiba","lon":140.05,"lat":35.56},"5715":{"name":"Gelibolu","lon":26.68,"lat":40.41},"5718":{"name":"Luanda","lon":13.35,"lat":-8.93},"5724":{"name":"Mobile","lon":-88.16,"lat":30.75},"5728":{"name":"Ostend","lon":2.97,"lat":51.34},"5736":{"name":"Pemba","lon":40.50,"lat":-12.95},"5748":{"name":"Samsun","lon":36.33,"lat":41.30},"5749":{"name":"Annaba","lon":7.81,"lat":37.04},"5753":{"name":"Castries","lon":-61.04,"lat":14.02},"5757":{"name":"Penang","lon":100.33,"lat":5.41},"5760":{"name":"Gdansk","lon":18.71,"lat":54.46},"5763":{"name":"Batumi","lon":41.76,"lat":41.67},"5767":{"name":"San Vicente","lon":-73.15,"lat":-36.73},"5768":{"name":"Guiria","lon":-62.30,"lat":10.56},"5774":{"name":"Pontianak","lon":109.35,"lat":-0.01},"5775":{"name":"Pohang","lon":129.50,"lat":36.06},"5776":{"name":"Tuzla","lon":29.48,"lat":40.89},"5778":{"name":"Aqaba","lon":35.01,"lat":29.51},"5784":{"name":"Gefle","lon":17.16,"lat":60.66},"5793":{"name":"Muara Port","lon":115.08,"lat":5.03},"5794":{"name":"Burnie","lon":145.95,"lat":-41.12},"5801":{"name":"Luderitz","lon":15.15,"lat":-26.63},"5802":{"name":"Tokyo","lon":139.73,"lat":35.68},"5808":{"name":"Stavanger","lon":5.73,"lat":58.96},"5813":{"name":"Yeisk","lon":38.26,"lat":46.73},"5816":{"name":"Koping","lon":16.00,"lat":59.51},"5821":{"name":"Alang","lon":72.15,"lat":21.40},"5828":{"name":"Xingang","lon":117.75,"lat":38.98},"5836":{"name":"Skikda","lon":7.03,"lat":36.97},"5844":{"name":"Den Helder","lon":4.78,"lat":52.96},"5850":{"name":"Imabari","lon":133.01,"lat":34.06},"5851":{"name":"Imari","lon":129.81,"lat":33.26},"5853":{"name":"Madang","lon":145.83,"lat":-5.25},"5857":{"name":"Ronne","lon":14.70,"lat":55.10},"5865":{"name":"Goole","lon":-0.86,"lat":53.70},"5882":{"name":"Morehead City","lon":-76.70,"lat":34.71},"5889":{"name":"Sepetiba","lon":-43.83,"lat":-22.93},"5891":{"name":"Haifa","lon":35.00,"lat":32.81},"5899":{"name":"Kotka","lon":27.07,"lat":60.49},"5908":{"name":"Teluk Bayur","lon":100.35,"lat":-1.00},"5917":{"name":"Seville","lon":-6.00,"lat":37.36},"5923":{"name":"Arica","lon":-70.33,"lat":-18.48},"5924":{"name":"Kendari","lon":122.58,"lat":-3.96},"5930":{"name":"Larnaca","lon":33.68,"lat":35.01},"5931":{"name":"Tanga","lon":39.10,"lat":-5.06},"5942":{"name":"Saint John(CAN)","lon":-66.06,"lat":45.26},"5944":{"name":"Raahe","lon":24.53,"lat":64.70},"5947":{"name":"Galle","lon":80.21,"lat":6.01},"5952":{"name":"Leith","lon":-3.16,"lat":55.98},"5956":{"name":"Acajutla","lon":-89.83,"lat":13.60},"5961":{"name":"Kanda","lon":131.00,"lat":33.80},"6036":{"name":"Mongla","lon":89.62,"lat":22.53},"6046":{"name":"Abu Kir","lon":30.06,"lat":31.30},"6047":{"name":"Rades","lon":10.23,"lat":36.80},"6053":{"name":"Zhoushan","lon":122.10,"lat":30.00},"6056":{"name":"Nuweiba","lon":34.63,"lat":28.96},"6063":{"name":"Gorinchem","lon":4.98,"lat":51.81},"6069":{"name":"Zhenjiang","lon":119.47,"lat":32.21},"6071":{"name":"Onsan","lon":129.41,"lat":35.55},"6075":{"name":"Sepetiba Term.","lon":0.00,"lat":0.00},"6126":{"name":"Banten","lon":105.96,"lat":-6.01},"6133":{"name":"Naha","lon":127.66,"lat":26.21},"6142":{"name":"Diliskelesi","lon":29.53,"lat":40.76},"6160":{"name":"Mipo","lon":129.54,"lat":35.55},"6166":{"name":"Jawaharlal Nehru","lon":72.85,"lat":18.93},"6187":{"name":"Haimen","lon":121.43,"lat":28.68},"6188":{"name":"Helguvik","lon":-21.46,"lat":64.38},"6191":{"name":"Lappohja","lon":23.34,"lat":59.90},"6196":{"name":"Daesan","lon":126.41,"lat":37.01},"6233":{"name":"Pozzallo","lon":14.85,"lat":36.71},"6242":{"name":"Wolgast","lon":13.78,"lat":54.05},"6267":{"name":"Sovetskaya Gavan","lon":140.33,"lat":49.03},"6323":{"name":"Ishikariwan Shinko","lon":141.30,"lat":43.21},"6347":{"name":"Salacgriva","lon":24.36,"lat":57.75},"6360":{"name":"Tanjung Bara","lon":117.63,"lat":0.53},"6366":{"name":"Map Ta Phut","lon":101.15,"lat":12.65},"6387":{"name":"Unye","lon":37.30,"lat":41.13},"6392":{"name":"Nabire","lon":135.51,"lat":-3.38},"6420":{"name":"Tanjung Balai","lon":99.80,"lat":2.96},"6424":{"name":"Borg Hbr.","lon":10.95,"lat":59.20},"6462":{"name":"Arlen Siu","lon":-84.25,"lat":12.15},"6464":{"name":"Pipavav","lon":71.56,"lat":20.98},"6469":{"name":"Kabil","lon":104.13,"lat":1.08},"6484":{"name":"Jiangyin","lon":120.25,"lat":31.91},"6494":{"name":"Velsen","lon":4.75,"lat":52.51},"6495":{"name":"Escombreras","lon":-0.96,"lat":37.55},"6509":{"name":"Sendai","lon":141.05,"lat":38.26},"6512":{"name":"Yantian","lon":114.28,"lat":22.65},"6514":{"name":"Thamesport","lon":0.70,"lat":51.43},"7501":{"name":"Ras Laffan","lon":51.64,"lat":26.01},"7508":{"name":"Temryuk","lon":37.36,"lat":45.28},"7540":{"name":"Paldiski","lon":24.05,"lat":59.35},"7559":{"name":"Manzanillo(PAN)","lon":-79.86,"lat":9.36},"7581":{"name":"Yangzhou","lon":119.36,"lat":32.36},"7582":{"name":"Shidao","lon":122.53,"lat":36.99},"7583":{"name":"Jingjiang","lon":120.30,"lat":32.01},"7584":{"name":"Rizhao","lon":119.48,"lat":35.48},"7590":{"name":"Jinzhou","lon":121.10,"lat":40.75},"7592":{"name":"Muscat","lon":58.63,"lat":23.61},"7593":{"name":"Georgetown(GUY)","lon":-58.18,"lat":6.81},"7596":{"name":"Norfolk(USA)","lon":-76.31,"lat":36.85},"7597":{"name":"Long Beach","lon":-118.30,"lat":33.91},"7598":{"name":"Oakland","lon":-122.28,"lat":37.80},"7602":{"name":"Port Victoria","lon":55.45,"lat":-4.61},"7605":{"name":"Bell Bay","lon":146.86,"lat":-41.13},"7606":{"name":"Tauranga","lon":176.16,"lat":-37.65},"7607":{"name":"Noumea","lon":166.43,"lat":-22.28},"7615":{"name":"Aleksandrovsk-Sakhalinskiy","lon":142.11,"lat":50.88},"7616":{"name":"Sliedrecht","lon":4.75,"lat":51.83},"7666":{"name":"Azov","lon":39.48,"lat":47.18},"7680":{"name":"Bolshoy Kamen","lon":132.33,"lat":43.13},"7682":{"name":"Funchal","lon":-16.90,"lat":32.63},"7683":{"name":"Zarubino","lon":131.10,"lat":42.66},"7698":{"name":"Samho","lon":126.46,"lat":34.86},"7701":{"name":"Newport News","lon":-76.41,"lat":36.96},"7702":{"name":"Zhapu","lon":121.08,"lat":30.58},"7704":{"name":"Zhangzhou","lon":118.05,"lat":24.51},"7705":{"name":"Tangshan","lon":119.01,"lat":39.21},"7706":{"name":"Changshu","lon":120.73,"lat":31.63},"7762":{"name":"Longoni","lon":45.15,"lat":-12.71},"7801":{"name":"Muldwarka","lon":70.65,"lat":20.75},"7829":{"name":"Philipsburg","lon":-63.05,"lat":18.03},"7866":{"name":"Fuqing","lon":119.35,"lat":25.71},"7872":{"name":"Mawan","lon":113.86,"lat":22.48},"7895":{"name":"Mai-Liao","lon":120.16,"lat":23.78},"7903":{"name":"Xinhui","lon":113.03,"lat":22.51},"7915":{"name":"Haydarpasa","lon":29.01,"lat":41.00},"7934":{"name":"Schiedam","lon":4.40,"lat":51.90},"7974":{"name":"Camden(NJ USA)","lon":-75.13,"lat":39.93},"7975":{"name":"Wilmington(DE USA)","lon":-75.50,"lat":39.75},"7976":{"name":"Richmond(VA USA)","lon":-77.43,"lat":37.53},"8029":{"name":"Tilbury","lon":0.46,"lat":51.59},"8048":{"name":"Tanjung Pelepas","lon":103.68,"lat":1.42},"8075":{"name":"Jiaxing","lon":120.86,"lat":30.85},"8079":{"name":"Portsmouth(VA USA)","lon":-76.28,"lat":36.83},"8081":{"name":"Chesapeake","lon":-76.30,"lat":36.78},"8092":{"name":"Santa Cruz de Tenerife","lon":-16.23,"lat":28.48},"8106":{"name":"Higashi-Harima","lon":134.83,"lat":34.71},"8113":{"name":"Quang Ninh","lon":106.63,"lat":17.40},"8115":{"name":"Dongguan","lon":113.71,"lat":23.05},"8117":{"name":"Chaozhou","lon":116.63,"lat":23.66},"8140":{"name":"Yangjiang","lon":111.93,"lat":21.85},"8220":{"name":"Taicang","lon":121.08,"lat":31.45},"8229":{"name":"Burnside","lon":-90.91,"lat":30.13},"8243":{"name":"North Killingholme","lon":-0.28,"lat":53.80},"8267":{"name":"Meizhou","lon":119.00,"lat":25.18},"8311":{"name":"Changzhou","lon":113.45,"lat":23.16},"8363":{"name":"Taizhou","lon":119.41,"lat":32.41},"8364":{"name":"Jiaojiang","lon":121.41,"lat":28.65},"8394":{"name":"Toyo","lon":133.06,"lat":33.91},"8435":{"name":"Pecem","lon":-38.81,"lat":-3.55},"8465":{"name":"Rongcheng","lon":122.40,"lat":37.15},"8500":{"name":"Cai Lan","lon":107.03,"lat":20.96},"8501":{"name":"Big Creek","lon":-88.40,"lat":16.50},"8517":{"name":"Shanhaiguan","lon":119.94,"lat":40.01},"8522":{"name":"Bang Pakong","lon":100.98,"lat":13.51},"8539":{"name":"Sokhna","lon":32.36,"lat":29.68},"8553":{"name":"Kopavogur","lon":-21.88,"lat":64.10},"8639":{"name":"Laizhou","lon":120.00,"lat":37.45},"8640":{"name":"Nansha","lon":113.56,"lat":22.83},"8656":{"name":"Marcus Hook","lon":-75.41,"lat":39.81},"8657":{"name":"Eddystone","lon":-75.33,"lat":39.83},"8658":{"name":"Fairless Hills","lon":-74.88,"lat":40.16},"8659":{"name":"Gloucester(NJ USA)","lon":-75.13,"lat":39.88},"8663":{"name":"Reedy Point","lon":-75.56,"lat":39.56},"8722":{"name":"Waggaman","lon":-90.20,"lat":29.90},"8807":{"name":"Salem(NJ USA)","lon":-75.46,"lat":39.56},"8839":{"name":"Sendai-Shiogama","lon":141.03,"lat":38.28},"8857":{"name":"Caucedo","lon":-69.76,"lat":18.46},"8868":{"name":"Fazendinha","lon":-51.11,"lat":0.06},"8914":{"name":"Fushiki-Toyama","lon":137.08,"lat":36.76},"8956":{"name":"Sohar","lon":56.63,"lat":24.50},"9231":{"name":"Cat Lai","lon":106.76,"lat":10.75},"9259":{"name":"Sillamae","lon":27.78,"lat":59.40},"9265":{"name":"Colon(PAN)","lon":-79.91,"lat":9.36},"9272":{"name":"Igsas","lon":29.75,"lat":40.75},"9468":{"name":"Taipei","lon":121.35,"lat":25.16},"9487":{"name":"Canical","lon":-16.73,"lat":32.73},"9692":{"name":"Yangshan","lon":122.06,"lat":30.63}}